[
  {
    "id": "1",
    "name": "Astoria-Ditmars Blvd",
    "borough": "Q",
    "lat": 40.775036,
    "lng": -73.912034,
    "routes": [
      "N",
      "W"
    ]
  },
  {
    "id": "2",
    "name": "Astoria Blvd",
    "borough": "Q",
    "lat": 40.770258,
    "lng": -73.917843,
    "routes": [
      "N",
      "W"
    ]
  },
  {
    "id": "3",
    "name": "30 Av",
    "borough": "Q",
    "lat": 40.766779,
    "lng": -73.921479,
    "routes": [
      "N",
      "W"
    ]
  },
  {
    "id": "4",
    "name": "Broadway",
    "borough": "Q",
    "lat": 40.76182,
    "lng": -73.925508,
    "routes": [
      "N",
      "W"
    ]
  },
  {
    "id": "5",
    "name": "36 Av",
    "borough": "Q",
    "lat": 40.756804,
    "lng": -73.929575,
    "routes": [
      "N",
      "W"
    ]
  },
  {
    "id": "6",
    "name": "39 Av-Dutch Kills",
    "borough": "Q",
    "lat": 40.752882,
    "lng": -73.932755,
    "routes": [
      "N",
      "W"
    ]
  },
  {
    "id": "613",
    "name": "Lexington Av/59 St",
    "borough": "M",
    "lat": 40.76266,
    "lng": -73.967258,
    "routes": [
      "4",
      "5",
      "6",
      "N",
      "R",
      "W"
    ]
  },
  {
    "id": "8",
    "name": "5 Av/59 St",
    "borough": "M",
    "lat": 40.764811,
    "lng": -73.973347,
    "routes": [
      "N",
      "R",
      "W"
    ]
  },
  {
    "id": "9",
    "name": "57 St-7 Av",
    "borough": "M",
    "lat": 40.764664,
    "lng": -73.980658,
    "routes": [
      "N",
      "Q",
      "R",
      "W"
    ]
  },
  {
    "id": "10",
    "name": "49 St",
    "borough": "M",
    "lat": 40.759901,
    "lng": -73.984139,
    "routes": [
      "N",
      "R",
      "W"
    ]
  },
  {
    "id": "611",
    "name": "Times Sq-42 St",
    "borough": "M",
    "lat": 40.754672,
    "lng": -73.986754,
    "routes": [
      "1",
      "2",
      "3",
      "7",
      "A",
      "C",
      "E",
      "N",
      "Q",
      "R",
      "S",
      "W"
    ]
  },
  {
    "id": "607",
    "name": "34 St-Herald Sq",
    "borough": "M",
    "lat": 40.749567,
    "lng": -73.98795,
    "routes": [
      "B",
      "D",
      "F",
      "M",
      "N",
      "Q",
      "R",
      "W"
    ]
  },
  {
    "id": "13",
    "name": "28 St",
    "borough": "M",
    "lat": 40.745494,
    "lng": -73.988691,
    "routes": [
      "R",
      "W"
    ]
  },
  {
    "id": "14",
    "name": "23 St",
    "borough": "M",
    "lat": 40.741303,
    "lng": -73.989344,
    "routes": [
      "R",
      "W"
    ]
  },
  {
    "id": "602",
    "name": "14 St-Union Sq",
    "borough": "M",
    "lat": 40.735736,
    "lng": -73.990568,
    "routes": [
      "4",
      "5",
      "6",
      "L",
      "N",
      "Q",
      "R",
      "W"
    ]
  },
  {
    "id": "16",
    "name": "8 St-NYU",
    "borough": "M",
    "lat": 40.730328,
    "lng": -73.992629,
    "routes": [
      "R",
      "W"
    ]
  },
  {
    "id": "17",
    "name": "Prince St",
    "borough": "M",
    "lat": 40.724329,
    "lng": -73.997702,
    "routes": [
      "R",
      "W"
    ]
  },
  {
    "id": "623",
    "name": "Canal St",
    "borough": "M",
    "lat": 40.719527,
    "lng": -74.001775,
    "routes": [
      "6",
      "J",
      "N",
      "Q",
      "R",
      "W",
      "Z"
    ]
  },
  {
    "id": "20",
    "name": "City Hall",
    "borough": "M",
    "lat": 40.713282,
    "lng": -74.006978,
    "routes": [
      "R",
      "W"
    ]
  },
  {
    "id": "624",
    "name": "Cortlandt St",
    "borough": "M",
    "lat": 40.710668,
    "lng": -74.011029,
    "routes": [
      "2",
      "3",
      "A",
      "C",
      "E",
      "R",
      "W"
    ]
  },
  {
    "id": "22",
    "name": "Rector St",
    "borough": "M",
    "lat": 40.70722,
    "lng": -74.013342,
    "routes": [
      "R",
      "W"
    ]
  },
  {
    "id": "635",
    "name": "Whitehall St-South Ferry",
    "borough": "M",
    "lat": 40.703087,
    "lng": -74.012994,
    "routes": [
      "1",
      "R",
      "W"
    ]
  },
  {
    "id": "620",
    "name": "Court St",
    "borough": "Bk",
    "lat": 40.6941,
    "lng": -73.991777,
    "routes": [
      "2",
      "3",
      "4",
      "5",
      "R"
    ]
  },
  {
    "id": "636",
    "name": "Jay St-MetroTech",
    "borough": "Bk",
    "lat": 40.69218,
    "lng": -73.985942,
    "routes": [
      "A",
      "C",
      "F",
      "R"
    ]
  },
  {
    "id": "26",
    "name": "DeKalb Av",
    "borough": "Bk",
    "lat": 40.690635,
    "lng": -73.981824,
    "routes": [
      "B",
      "Q",
      "R"
    ]
  },
  {
    "id": "617",
    "name": "Atlantic Av-Barclays Ctr",
    "borough": "Bk",
    "lat": 40.683666,
    "lng": -73.97881,
    "routes": [
      "2",
      "3",
      "4",
      "5",
      "B",
      "D",
      "N",
      "Q",
      "R"
    ]
  },
  {
    "id": "28",
    "name": "Union St",
    "borough": "Bk",
    "lat": 40.677316,
    "lng": -73.98311,
    "routes": [
      "R"
    ]
  },
  {
    "id": "608",
    "name": "4 Av-9 St",
    "borough": "Bk",
    "lat": 40.670847,
    "lng": -73.988302,
    "routes": [
      "F",
      "G",
      "R"
    ]
  },
  {
    "id": "30",
    "name": "Prospect Av",
    "borough": "Bk",
    "lat": 40.665414,
    "lng": -73.992872,
    "routes": [
      "R"
    ]
  },
  {
    "id": "31",
    "name": "25 St",
    "borough": "Bk",
    "lat": 40.660397,
    "lng": -73.998091,
    "routes": [
      "R"
    ]
  },
  {
    "id": "32",
    "name": "36 St",
    "borough": "Bk",
    "lat": 40.655144,
    "lng": -74.003549,
    "routes": [
      "D",
      "N",
      "R"
    ]
  },
  {
    "id": "33",
    "name": "45 St",
    "borough": "Bk",
    "lat": 40.648939,
    "lng": -74.010006,
    "routes": [
      "R"
    ]
  },
  {
    "id": "34",
    "name": "53 St",
    "borough": "Bk",
    "lat": 40.645069,
    "lng": -74.014034,
    "routes": [
      "R"
    ]
  },
  {
    "id": "35",
    "name": "59 St",
    "borough": "Bk",
    "lat": 40.641362,
    "lng": -74.017881,
    "routes": [
      "N",
      "R"
    ]
  },
  {
    "id": "36",
    "name": "Bay Ridge Av",
    "borough": "Bk",
    "lat": 40.634967,
    "lng": -74.023377,
    "routes": [
      "R"
    ]
  },
  {
    "id": "37",
    "name": "77 St",
    "borough": "Bk",
    "lat": 40.629742,
    "lng": -74.02551,
    "routes": [
      "R"
    ]
  },
  {
    "id": "38",
    "name": "86 St",
    "borough": "Bk",
    "lat": 40.622687,
    "lng": -74.028398,
    "routes": [
      "R"
    ]
  },
  {
    "id": "39",
    "name": "Bay Ridge-95 St",
    "borough": "Bk",
    "lat": 40.616622,
    "lng": -74.030876,
    "routes": [
      "R"
    ]
  },
  {
    "id": "41",
    "name": "7 Av",
    "borough": "Bk",
    "lat": 40.67705,
    "lng": -73.972367,
    "routes": [
      "B",
      "Q"
    ]
  },
  {
    "id": "42",
    "name": "Prospect Park",
    "borough": "Bk",
    "lat": 40.661614,
    "lng": -73.962246,
    "routes": [
      "B",
      "Q",
      "S"
    ]
  },
  {
    "id": "43",
    "name": "Parkside Av",
    "borough": "Bk",
    "lat": 40.655292,
    "lng": -73.961495,
    "routes": [
      "Q"
    ]
  },
  {
    "id": "44",
    "name": "Church Av",
    "borough": "Bk",
    "lat": 40.650527,
    "lng": -73.962982,
    "routes": [
      "B",
      "Q"
    ]
  },
  {
    "id": "45",
    "name": "Beverley Rd",
    "borough": "Bk",
    "lat": 40.644031,
    "lng": -73.964492,
    "routes": [
      "Q"
    ]
  },
  {
    "id": "46",
    "name": "Cortelyou Rd",
    "borough": "Bk",
    "lat": 40.640927,
    "lng": -73.963891,
    "routes": [
      "Q"
    ]
  },
  {
    "id": "47",
    "name": "Newkirk Plaza",
    "borough": "Bk",
    "lat": 40.635082,
    "lng": -73.962793,
    "routes": [
      "B",
      "Q"
    ]
  },
  {
    "id": "48",
    "name": "Avenue H",
    "borough": "Bk",
    "lat": 40.62927,
    "lng": -73.961639,
    "routes": [
      "Q"
    ]
  },
  {
    "id": "49",
    "name": "Avenue J",
    "borough": "Bk",
    "lat": 40.625039,
    "lng": -73.960803,
    "routes": [
      "Q"
    ]
  },
  {
    "id": "50",
    "name": "Avenue M",
    "borough": "Bk",
    "lat": 40.617618,
    "lng": -73.959399,
    "routes": [
      "Q"
    ]
  },
  {
    "id": "51",
    "name": "Kings Hwy",
    "borough": "Bk",
    "lat": 40.60867,
    "lng": -73.957734,
    "routes": [
      "B",
      "Q"
    ]
  },
  {
    "id": "52",
    "name": "Avenue U",
    "borough": "Bk",
    "lat": 40.5993,
    "lng": -73.955929,
    "routes": [
      "Q"
    ]
  },
  {
    "id": "53",
    "name": "Neck Rd",
    "borough": "Bk",
    "lat": 40.595246,
    "lng": -73.955161,
    "routes": [
      "Q"
    ]
  },
  {
    "id": "54",
    "name": "Sheepshead Bay",
    "borough": "Bk",
    "lat": 40.586896,
    "lng": -73.954155,
    "routes": [
      "B",
      "Q"
    ]
  },
  {
    "id": "55",
    "name": "Brighton Beach",
    "borough": "Bk",
    "lat": 40.577621,
    "lng": -73.961376,
    "routes": [
      "B",
      "Q"
    ]
  },
  {
    "id": "56",
    "name": "Ocean Pkwy",
    "borough": "Bk",
    "lat": 40.576312,
    "lng": -73.968501,
    "routes": [
      "Q"
    ]
  },
  {
    "id": "57",
    "name": "W 8 St-NY Aquarium",
    "borough": "Bk",
    "lat": 40.576127,
    "lng": -73.975939,
    "routes": [
      "F",
      "Q"
    ]
  },
  {
    "id": "58",
    "name": "Coney Island-Stillwell Av",
    "borough": "Bk",
    "lat": 40.577422,
    "lng": -73.981233,
    "routes": [
      "D",
      "F",
      "N",
      "Q"
    ]
  },
  {
    "id": "59",
    "name": "9 Av",
    "borough": "Bk",
    "lat": 40.646292,
    "lng": -73.994324,
    "routes": [
      "D"
    ]
  },
  {
    "id": "60",
    "name": "Fort Hamilton Pkwy",
    "borough": "Bk",
    "lat": 40.640914,
    "lng": -73.994304,
    "routes": [
      "D"
    ]
  },
  {
    "id": "61",
    "name": "50 St",
    "borough": "Bk",
    "lat": 40.63626,
    "lng": -73.994791,
    "routes": [
      "D"
    ]
  },
  {
    "id": "62",
    "name": "55 St",
    "borough": "Bk",
    "lat": 40.631435,
    "lng": -73.995476,
    "routes": [
      "D"
    ]
  },
  {
    "id": "615",
    "name": "62 St",
    "borough": "Bk",
    "lat": 40.626472,
    "lng": -73.996895,
    "routes": [
      "D",
      "N"
    ]
  },
  {
    "id": "64",
    "name": "71 St",
    "borough": "Bk",
    "lat": 40.619589,
    "lng": -73.998864,
    "routes": [
      "D"
    ]
  },
  {
    "id": "65",
    "name": "79 St",
    "borough": "Bk",
    "lat": 40.613501,
    "lng": -74.00061,
    "routes": [
      "D"
    ]
  },
  {
    "id": "66",
    "name": "18 Av",
    "borough": "Bk",
    "lat": 40.607954,
    "lng": -74.001736,
    "routes": [
      "D"
    ]
  },
  {
    "id": "67",
    "name": "20 Av",
    "borough": "Bk",
    "lat": 40.604556,
    "lng": -73.998168,
    "routes": [
      "D"
    ]
  },
  {
    "id": "68",
    "name": "Bay Pkwy",
    "borough": "Bk",
    "lat": 40.601875,
    "lng": -73.993728,
    "routes": [
      "D"
    ]
  },
  {
    "id": "69",
    "name": "25 Av",
    "borough": "Bk",
    "lat": 40.597704,
    "lng": -73.986829,
    "routes": [
      "D"
    ]
  },
  {
    "id": "70",
    "name": "Bay 50 St",
    "borough": "Bk",
    "lat": 40.588841,
    "lng": -73.983765,
    "routes": [
      "D"
    ]
  },
  {
    "id": "71",
    "name": "8 Av",
    "borough": "Bk",
    "lat": 40.635064,
    "lng": -74.011719,
    "routes": [
      "N"
    ]
  },
  {
    "id": "72",
    "name": "Fort Hamilton Pkwy",
    "borough": "Bk",
    "lat": 40.631386,
    "lng": -74.005351,
    "routes": [
      "N"
    ]
  },
  {
    "id": "74",
    "name": "18 Av",
    "borough": "Bk",
    "lat": 40.620671,
    "lng": -73.990414,
    "routes": [
      "N"
    ]
  },
  {
    "id": "75",
    "name": "20 Av",
    "borough": "Bk",
    "lat": 40.61741,
    "lng": -73.985026,
    "routes": [
      "N"
    ]
  },
  {
    "id": "76",
    "name": "Bay Pkwy",
    "borough": "Bk",
    "lat": 40.611815,
    "lng": -73.981848,
    "routes": [
      "N"
    ]
  },
  {
    "id": "77",
    "name": "Kings Hwy",
    "borough": "Bk",
    "lat": 40.603923,
    "lng": -73.980353,
    "routes": [
      "N"
    ]
  },
  {
    "id": "78",
    "name": "Avenue U",
    "borough": "Bk",
    "lat": 40.597473,
    "lng": -73.979137,
    "routes": [
      "N"
    ]
  },
  {
    "id": "79",
    "name": "86 St",
    "borough": "Bk",
    "lat": 40.592721,
    "lng": -73.97823,
    "routes": [
      "N"
    ]
  },
  {
    "id": "80",
    "name": "121 St",
    "borough": "Q",
    "lat": 40.700492,
    "lng": -73.828294,
    "routes": [
      "J",
      "Z"
    ]
  },
  {
    "id": "81",
    "name": "111 St",
    "borough": "Q",
    "lat": 40.697418,
    "lng": -73.836345,
    "routes": [
      "J"
    ]
  },
  {
    "id": "82",
    "name": "104 St",
    "borough": "Q",
    "lat": 40.695178,
    "lng": -73.84433,
    "routes": [
      "J",
      "Z"
    ]
  },
  {
    "id": "83",
    "name": "Woodhaven Blvd",
    "borough": "Q",
    "lat": 40.693879,
    "lng": -73.851576,
    "routes": [
      "J",
      "Z"
    ]
  },
  {
    "id": "84",
    "name": "85 St-Forest Pkwy",
    "borough": "Q",
    "lat": 40.692435,
    "lng": -73.86001,
    "routes": [
      "J"
    ]
  },
  {
    "id": "85",
    "name": "75 St-Elderts Ln",
    "borough": "Q",
    "lat": 40.691324,
    "lng": -73.867139,
    "routes": [
      "J",
      "Z"
    ]
  },
  {
    "id": "86",
    "name": "Cypress Hills",
    "borough": "Bk",
    "lat": 40.689941,
    "lng": -73.87255,
    "routes": [
      "J"
    ]
  },
  {
    "id": "87",
    "name": "Crescent St",
    "borough": "Bk",
    "lat": 40.683194,
    "lng": -73.873785,
    "routes": [
      "J",
      "Z"
    ]
  },
  {
    "id": "88",
    "name": "Norwood Av",
    "borough": "Bk",
    "lat": 40.68141,
    "lng": -73.880039,
    "routes": [
      "J",
      "Z"
    ]
  },
  {
    "id": "89",
    "name": "Cleveland St",
    "borough": "Bk",
    "lat": 40.679947,
    "lng": -73.884639,
    "routes": [
      "J"
    ]
  },
  {
    "id": "90",
    "name": "Van Siclen Av",
    "borough": "Bk",
    "lat": 40.678024,
    "lng": -73.891688,
    "routes": [
      "J",
      "Z"
    ]
  },
  {
    "id": "91",
    "name": "Alabama Av",
    "borough": "Bk",
    "lat": 40.676992,
    "lng": -73.898654,
    "routes": [
      "J",
      "Z"
    ]
  },
  {
    "id": "621",
    "name": "Broadway Junction",
    "borough": "Bk",
    "lat": 40.679498,
    "lng": -73.904512,
    "routes": [
      "A",
      "C",
      "J",
      "L",
      "Z"
    ]
  },
  {
    "id": "93",
    "name": "Chauncey St",
    "borough": "Bk",
    "lat": 40.682893,
    "lng": -73.910456,
    "routes": [
      "J",
      "Z"
    ]
  },
  {
    "id": "94",
    "name": "Halsey St",
    "borough": "Bk",
    "lat": 40.68637,
    "lng": -73.916559,
    "routes": [
      "J"
    ]
  },
  {
    "id": "95",
    "name": "Gates Av",
    "borough": "Bk",
    "lat": 40.68963,
    "lng": -73.92227,
    "routes": [
      "J",
      "Z"
    ]
  },
  {
    "id": "96",
    "name": "Kosciuszko St",
    "borough": "Bk",
    "lat": 40.693342,
    "lng": -73.928814,
    "routes": [
      "J"
    ]
  },
  {
    "id": "97",
    "name": "Myrtle Av",
    "borough": "Bk",
    "lat": 40.697207,
    "lng": -73.935657,
    "routes": [
      "J",
      "M",
      "Z"
    ]
  },
  {
    "id": "98",
    "name": "Flushing Av",
    "borough": "Bk",
    "lat": 40.70026,
    "lng": -73.941126,
    "routes": [
      "J",
      "M"
    ]
  },
  {
    "id": "99",
    "name": "Lorimer St",
    "borough": "Bk",
    "lat": 40.703869,
    "lng": -73.947408,
    "routes": [
      "J",
      "M"
    ]
  },
  {
    "id": "100",
    "name": "Hewes St",
    "borough": "Bk",
    "lat": 40.70687,
    "lng": -73.953431,
    "routes": [
      "J",
      "M"
    ]
  },
  {
    "id": "101",
    "name": "Marcy Av",
    "borough": "Bk",
    "lat": 40.708359,
    "lng": -73.957757,
    "routes": [
      "J",
      "M",
      "Z"
    ]
  },
  {
    "id": "625",
    "name": "Delancey St-Essex St",
    "borough": "M",
    "lat": 40.718315,
    "lng": -73.987437,
    "routes": [
      "F",
      "J",
      "M",
      "Z"
    ]
  },
  {
    "id": "103",
    "name": "Bowery",
    "borough": "M",
    "lat": 40.72028,
    "lng": -73.993915,
    "routes": [
      "J",
      "Z"
    ]
  },
  {
    "id": "622",
    "name": "Chambers St",
    "borough": "M",
    "lat": 40.713243,
    "lng": -74.003401,
    "routes": [
      "4",
      "5",
      "6",
      "J",
      "Z"
    ]
  },
  {
    "id": "628",
    "name": "Fulton St",
    "borough": "M",
    "lat": 40.710374,
    "lng": -74.007582,
    "routes": [
      "2",
      "3",
      "4",
      "5",
      "A",
      "C",
      "J",
      "Z"
    ]
  },
  {
    "id": "107",
    "name": "Broad St",
    "borough": "M",
    "lat": 40.706476,
    "lng": -74.011056,
    "routes": [
      "J",
      "Z"
    ]
  },
  {
    "id": "108",
    "name": "Middle Village-Metropolitan Av",
    "borough": "Q",
    "lat": 40.711396,
    "lng": -73.889601,
    "routes": [
      "M"
    ]
  },
  {
    "id": "109",
    "name": "Fresh Pond Rd",
    "borough": "Q",
    "lat": 40.706186,
    "lng": -73.895877,
    "routes": [
      "M"
    ]
  },
  {
    "id": "110",
    "name": "Forest Av",
    "borough": "Q",
    "lat": 40.704423,
    "lng": -73.903077,
    "routes": [
      "M"
    ]
  },
  {
    "id": "111",
    "name": "Seneca Av",
    "borough": "Q",
    "lat": 40.702762,
    "lng": -73.90774,
    "routes": [
      "M"
    ]
  },
  {
    "id": "630",
    "name": "Myrtle-Wyckoff Avs",
    "borough": "Bk",
    "lat": 40.69943,
    "lng": -73.912385,
    "routes": [
      "L",
      "M"
    ]
  },
  {
    "id": "113",
    "name": "Knickerbocker Av",
    "borough": "Bk",
    "lat": 40.698664,
    "lng": -73.919711,
    "routes": [
      "M"
    ]
  },
  {
    "id": "114",
    "name": "Central Av",
    "borough": "Bk",
    "lat": 40.697857,
    "lng": -73.927397,
    "routes": [
      "M"
    ]
  },
  {
    "id": "618",
    "name": "8 Av",
    "borough": "M",
    "lat": 40.739777,
    "lng": -74.002578,
    "routes": [
      "A",
      "C",
      "E",
      "L"
    ]
  },
  {
    "id": "601",
    "name": "6 Av",
    "borough": "M",
    "lat": 40.737335,
    "lng": -73.996786,
    "routes": [
      "1",
      "2",
      "3",
      "F",
      "L",
      "M"
    ]
  },
  {
    "id": "118",
    "name": "3 Av",
    "borough": "M",
    "lat": 40.732849,
    "lng": -73.986122,
    "routes": [
      "L"
    ]
  },
  {
    "id": "119",
    "name": "1 Av",
    "borough": "M",
    "lat": 40.730953,
    "lng": -73.981628,
    "routes": [
      "L"
    ]
  },
  {
    "id": "120",
    "name": "Bedford Av",
    "borough": "Bk",
    "lat": 40.717304,
    "lng": -73.956872,
    "routes": [
      "L"
    ]
  },
  {
    "id": "629",
    "name": "Lorimer St",
    "borough": "Bk",
    "lat": 40.714063,
    "lng": -73.950275,
    "routes": [
      "G",
      "L"
    ]
  },
  {
    "id": "122",
    "name": "Graham Av",
    "borough": "Bk",
    "lat": 40.714565,
    "lng": -73.944053,
    "routes": [
      "L"
    ]
  },
  {
    "id": "123",
    "name": "Grand St",
    "borough": "Bk",
    "lat": 40.711926,
    "lng": -73.94067,
    "routes": [
      "L"
    ]
  },
  {
    "id": "124",
    "name": "Montrose Av",
    "borough": "Bk",
    "lat": 40.707739,
    "lng": -73.93985,
    "routes": [
      "L"
    ]
  },
  {
    "id": "125",
    "name": "Morgan Av",
    "borough": "Bk",
    "lat": 40.706152,
    "lng": -73.933147,
    "routes": [
      "L"
    ]
  },
  {
    "id": "126",
    "name": "Jefferson St",
    "borough": "Bk",
    "lat": 40.706607,
    "lng": -73.922913,
    "routes": [
      "L"
    ]
  },
  {
    "id": "127",
    "name": "DeKalb Av",
    "borough": "Bk",
    "lat": 40.703811,
    "lng": -73.918425,
    "routes": [
      "L"
    ]
  },
  {
    "id": "129",
    "name": "Halsey St",
    "borough": "Q",
    "lat": 40.695602,
    "lng": -73.904084,
    "routes": [
      "L"
    ]
  },
  {
    "id": "130",
    "name": "Wilson Av",
    "borough": "Bk",
    "lat": 40.688764,
    "lng": -73.904046,
    "routes": [
      "L"
    ]
  },
  {
    "id": "131",
    "name": "Bushwick Av-Aberdeen St",
    "borough": "Bk",
    "lat": 40.682829,
    "lng": -73.905249,
    "routes": [
      "L"
    ]
  },
  {
    "id": "133",
    "name": "Atlantic Av",
    "borough": "Bk",
    "lat": 40.675345,
    "lng": -73.903097,
    "routes": [
      "L"
    ]
  },
  {
    "id": "134",
    "name": "Sutter Av",
    "borough": "Bk",
    "lat": 40.669367,
    "lng": -73.901975,
    "routes": [
      "L"
    ]
  },
  {
    "id": "135",
    "name": "Livonia Av",
    "borough": "Bk",
    "lat": 40.664038,
    "lng": -73.900571,
    "routes": [
      "L"
    ]
  },
  {
    "id": "136",
    "name": "New Lots Av",
    "borough": "Bk",
    "lat": 40.658733,
    "lng": -73.899232,
    "routes": [
      "L"
    ]
  },
  {
    "id": "137",
    "name": "East 105 St",
    "borough": "Bk",
    "lat": 40.650573,
    "lng": -73.899485,
    "routes": [
      "L"
    ]
  },
  {
    "id": "138",
    "name": "Canarsie-Rockaway Pkwy",
    "borough": "Bk",
    "lat": 40.646654,
    "lng": -73.90185,
    "routes": [
      "L"
    ]
  },
  {
    "id": "627",
    "name": "Franklin Av",
    "borough": "Bk",
    "lat": 40.680596,
    "lng": -73.955827,
    "routes": [
      "C",
      "S"
    ]
  },
  {
    "id": "141",
    "name": "Park Pl",
    "borough": "Bk",
    "lat": 40.674772,
    "lng": -73.957624,
    "routes": [
      "S"
    ]
  },
  {
    "id": "626",
    "name": "Botanic Garden",
    "borough": "Bk",
    "lat": 40.670343,
    "lng": -73.959245,
    "routes": [
      "2",
      "3",
      "4",
      "5",
      "S"
    ]
  },
  {
    "id": "143",
    "name": "Inwood-207 St",
    "borough": "M",
    "lat": 40.868072,
    "lng": -73.919899,
    "routes": [
      "A"
    ]
  },
  {
    "id": "144",
    "name": "Dyckman St",
    "borough": "M",
    "lat": 40.865491,
    "lng": -73.927271,
    "routes": [
      "A"
    ]
  },
  {
    "id": "145",
    "name": "190 St",
    "borough": "M",
    "lat": 40.859022,
    "lng": -73.93418,
    "routes": [
      "A"
    ]
  },
  {
    "id": "146",
    "name": "181 St",
    "borough": "M",
    "lat": 40.851695,
    "lng": -73.937969,
    "routes": [
      "A"
    ]
  },
  {
    "id": "147",
    "name": "175 St",
    "borough": "M",
    "lat": 40.847391,
    "lng": -73.939704,
    "routes": [
      "A"
    ]
  },
  {
    "id": "605",
    "name": "168 St",
    "borough": "M",
    "lat": 40.840719,
    "lng": -73.939561,
    "routes": [
      "1",
      "A",
      "C"
    ]
  },
  {
    "id": "149",
    "name": "163 St-Amsterdam Av",
    "borough": "M",
    "lat": 40.836013,
    "lng": -73.939892,
    "routes": [
      "C"
    ]
  },
  {
    "id": "150",
    "name": "155 St",
    "borough": "M",
    "lat": 40.830518,
    "lng": -73.941514,
    "routes": [
      "C"
    ]
  },
  {
    "id": "151",
    "name": "145 St",
    "borough": "M",
    "lat": 40.824783,
    "lng": -73.944216,
    "routes": [
      "A",
      "B",
      "C",
      "D"
    ]
  },
  {
    "id": "152",
    "name": "135 St",
    "borough": "M",
    "lat": 40.817894,
    "lng": -73.947649,
    "routes": [
      "B",
      "C"
    ]
  },
  {
    "id": "153",
    "name": "125 St",
    "borough": "M",
    "lat": 40.811109,
    "lng": -73.952343,
    "routes": [
      "A",
      "B",
      "C",
      "D"
    ]
  },
  {
    "id": "154",
    "name": "116 St",
    "borough": "M",
    "lat": 40.805085,
    "lng": -73.954882,
    "routes": [
      "B",
      "C"
    ]
  },
  {
    "id": "155",
    "name": "Cathedral Pkwy (110 St)",
    "borough": "M",
    "lat": 40.800603,
    "lng": -73.958161,
    "routes": [
      "B",
      "C"
    ]
  },
  {
    "id": "156",
    "name": "103 St",
    "borough": "M",
    "lat": 40.796092,
    "lng": -73.961454,
    "routes": [
      "B",
      "C"
    ]
  },
  {
    "id": "157",
    "name": "96 St",
    "borough": "M",
    "lat": 40.791642,
    "lng": -73.964696,
    "routes": [
      "B",
      "C"
    ]
  },
  {
    "id": "158",
    "name": "86 St",
    "borough": "M",
    "lat": 40.785868,
    "lng": -73.968916,
    "routes": [
      "B",
      "C"
    ]
  },
  {
    "id": "159",
    "name": "81 St-Museum of Natural History",
    "borough": "M",
    "lat": 40.781433,
    "lng": -73.972143,
    "routes": [
      "B",
      "C"
    ]
  },
  {
    "id": "160",
    "name": "72 St",
    "borough": "M",
    "lat": 40.775594,
    "lng": -73.97641,
    "routes": [
      "B",
      "C"
    ]
  },
  {
    "id": "614",
    "name": "59 St-Columbus Circle",
    "borough": "M",
    "lat": 40.768296,
    "lng": -73.981736,
    "routes": [
      "1",
      "A",
      "B",
      "C",
      "D"
    ]
  },
  {
    "id": "162",
    "name": "50 St",
    "borough": "M",
    "lat": 40.762456,
    "lng": -73.985984,
    "routes": [
      "C",
      "E"
    ]
  },
  {
    "id": "164",
    "name": "34 St-Penn Station",
    "borough": "M",
    "lat": 40.752287,
    "lng": -73.993391,
    "routes": [
      "A",
      "C",
      "E"
    ]
  },
  {
    "id": "165",
    "name": "23 St",
    "borough": "M",
    "lat": 40.745906,
    "lng": -73.998041,
    "routes": [
      "C",
      "E"
    ]
  },
  {
    "id": "167",
    "name": "W 4 St-Wash Sq",
    "borough": "M",
    "lat": 40.732338,
    "lng": -74.000495,
    "routes": [
      "A",
      "B",
      "C",
      "D",
      "E",
      "F",
      "M"
    ]
  },
  {
    "id": "168",
    "name": "Spring St",
    "borough": "M",
    "lat": 40.726227,
    "lng": -74.003739,
    "routes": [
      "C",
      "E"
    ]
  },
  {
    "id": "169",
    "name": "Canal St",
    "borough": "M",
    "lat": 40.720824,
    "lng": -74.005229,
    "routes": [
      "A",
      "C",
      "E"
    ]
  },
  {
    "id": "173",
    "name": "High St",
    "borough": "Bk",
    "lat": 40.699337,
    "lng": -73.990531,
    "routes": [
      "A",
      "C"
    ]
  },
  {
    "id": "175",
    "name": "Hoyt-Schermerhorn Sts",
    "borough": "Bk",
    "lat": 40.688484,
    "lng": -73.985001,
    "routes": [
      "A",
      "C",
      "G"
    ]
  },
  {
    "id": "176",
    "name": "Lafayette Av",
    "borough": "Bk",
    "lat": 40.686113,
    "lng": -73.973946,
    "routes": [
      "C"
    ]
  },
  {
    "id": "177",
    "name": "Clinton-Washington Avs",
    "borough": "Bk",
    "lat": 40.683263,
    "lng": -73.965838,
    "routes": [
      "C"
    ]
  },
  {
    "id": "179",
    "name": "Nostrand Av",
    "borough": "Bk",
    "lat": 40.680438,
    "lng": -73.950426,
    "routes": [
      "A",
      "C"
    ]
  },
  {
    "id": "180",
    "name": "Kingston-Throop Avs",
    "borough": "Bk",
    "lat": 40.679921,
    "lng": -73.940858,
    "routes": [
      "C"
    ]
  },
  {
    "id": "181",
    "name": "Utica Av",
    "borough": "Bk",
    "lat": 40.679364,
    "lng": -73.930729,
    "routes": [
      "A",
      "C"
    ]
  },
  {
    "id": "182",
    "name": "Ralph Av",
    "borough": "Bk",
    "lat": 40.678822,
    "lng": -73.920786,
    "routes": [
      "C"
    ]
  },
  {
    "id": "183",
    "name": "Rockaway Av",
    "borough": "Bk",
    "lat": 40.67834,
    "lng": -73.911946,
    "routes": [
      "C"
    ]
  },
  {
    "id": "185",
    "name": "Liberty Av",
    "borough": "Bk",
    "lat": 40.674542,
    "lng": -73.896548,
    "routes": [
      "C"
    ]
  },
  {
    "id": "186",
    "name": "Van Siclen Av",
    "borough": "Bk",
    "lat": 40.67271,
    "lng": -73.890358,
    "routes": [
      "C"
    ]
  },
  {
    "id": "187",
    "name": "Shepherd Av",
    "borough": "Bk",
    "lat": 40.67413,
    "lng": -73.88075,
    "routes": [
      "C"
    ]
  },
  {
    "id": "188",
    "name": "Euclid Av",
    "borough": "Bk",
    "lat": 40.675377,
    "lng": -73.872106,
    "routes": [
      "A",
      "C"
    ]
  },
  {
    "id": "189",
    "name": "Grant Av",
    "borough": "Bk",
    "lat": 40.677044,
    "lng": -73.86505,
    "routes": [
      "A"
    ]
  },
  {
    "id": "190",
    "name": "80 St",
    "borough": "Q",
    "lat": 40.679371,
    "lng": -73.858992,
    "routes": [
      "A"
    ]
  },
  {
    "id": "191",
    "name": "88 St",
    "borough": "Q",
    "lat": 40.679843,
    "lng": -73.85147,
    "routes": [
      "A"
    ]
  },
  {
    "id": "192",
    "name": "Rockaway Blvd",
    "borough": "Q",
    "lat": 40.680429,
    "lng": -73.843853,
    "routes": [
      "A"
    ]
  },
  {
    "id": "193",
    "name": "104 St",
    "borough": "Q",
    "lat": 40.681711,
    "lng": -73.837683,
    "routes": [
      "A"
    ]
  },
  {
    "id": "194",
    "name": "111 St",
    "borough": "Q",
    "lat": 40.684331,
    "lng": -73.832163,
    "routes": [
      "A"
    ]
  },
  {
    "id": "195",
    "name": "Ozone Park-Lefferts Blvd",
    "borough": "Q",
    "lat": 40.685951,
    "lng": -73.825798,
    "routes": [
      "A"
    ]
  },
  {
    "id": "196",
    "name": "Aqueduct Racetrack",
    "borough": "Q",
    "lat": 40.672097,
    "lng": -73.835919,
    "routes": [
      "A"
    ]
  },
  {
    "id": "197",
    "name": "Aqueduct-N Conduit Av",
    "borough": "Q",
    "lat": 40.668234,
    "lng": -73.834058,
    "routes": [
      "A"
    ]
  },
  {
    "id": "198",
    "name": "Howard Beach-JFK Airport",
    "borough": "Q",
    "lat": 40.660476,
    "lng": -73.830301,
    "routes": [
      "A"
    ]
  },
  {
    "id": "199",
    "name": "Broad Channel",
    "borough": "Q",
    "lat": 40.608382,
    "lng": -73.815925,
    "routes": [
      "A",
      "S"
    ]
  },
  {
    "id": "200",
    "name": "Beach 90 St",
    "borough": "Q",
    "lat": 40.588034,
    "lng": -73.813641,
    "routes": [
      "A",
      "S"
    ]
  },
  {
    "id": "201",
    "name": "Beach 98 St",
    "borough": "Q",
    "lat": 40.585307,
    "lng": -73.820558,
    "routes": [
      "A",
      "S"
    ]
  },
  {
    "id": "202",
    "name": "Beach 105 St",
    "borough": "Q",
    "lat": 40.583209,
    "lng": -73.827559,
    "routes": [
      "A",
      "S"
    ]
  },
  {
    "id": "203",
    "name": "Rockaway Park-Beach 116 St",
    "borough": "Q",
    "lat": 40.580903,
    "lng": -73.835592,
    "routes": [
      "A",
      "S"
    ]
  },
  {
    "id": "204",
    "name": "Beach 67 St",
    "borough": "Q",
    "lat": 40.590927,
    "lng": -73.796924,
    "routes": [
      "A"
    ]
  },
  {
    "id": "205",
    "name": "Beach 60 St",
    "borough": "Q",
    "lat": 40.592374,
    "lng": -73.788522,
    "routes": [
      "A"
    ]
  },
  {
    "id": "206",
    "name": "Beach 44 St",
    "borough": "Q",
    "lat": 40.592943,
    "lng": -73.776013,
    "routes": [
      "A"
    ]
  },
  {
    "id": "207",
    "name": "Beach 36 St",
    "borough": "Q",
    "lat": 40.595398,
    "lng": -73.768175,
    "routes": [
      "A"
    ]
  },
  {
    "id": "208",
    "name": "Beach 25 St",
    "borough": "Q",
    "lat": 40.600066,
    "lng": -73.761353,
    "routes": [
      "A"
    ]
  },
  {
    "id": "209",
    "name": "Far Rockaway-Mott Av",
    "borough": "Q",
    "lat": 40.603995,
    "lng": -73.755405,
    "routes": [
      "A"
    ]
  },
  {
    "id": "210",
    "name": "Norwood-205 St",
    "borough": "Bx",
    "lat": 40.874811,
    "lng": -73.878855,
    "routes": [
      "D"
    ]
  },
  {
    "id": "211",
    "name": "Bedford Park Blvd",
    "borough": "Bx",
    "lat": 40.873244,
    "lng": -73.887138,
    "routes": [
      "B",
      "D"
    ]
  },
  {
    "id": "212",
    "name": "Kingsbridge Rd",
    "borough": "Bx",
    "lat": 40.866978,
    "lng": -73.893509,
    "routes": [
      "B",
      "D"
    ]
  },
  {
    "id": "213",
    "name": "Fordham Rd",
    "borough": "Bx",
    "lat": 40.861296,
    "lng": -73.897749,
    "routes": [
      "B",
      "D"
    ]
  },
  {
    "id": "214",
    "name": "182-183 Sts",
    "borough": "Bx",
    "lat": 40.856093,
    "lng": -73.900741,
    "routes": [
      "B",
      "D"
    ]
  },
  {
    "id": "215",
    "name": "Tremont Av",
    "borough": "Bx",
    "lat": 40.85041,
    "lng": -73.905227,
    "routes": [
      "B",
      "D"
    ]
  },
  {
    "id": "216",
    "name": "174-175 Sts",
    "borough": "Bx",
    "lat": 40.8459,
    "lng": -73.910136,
    "routes": [
      "B",
      "D"
    ]
  },
  {
    "id": "217",
    "name": "170 St",
    "borough": "Bx",
    "lat": 40.839306,
    "lng": -73.9134,
    "routes": [
      "B",
      "D"
    ]
  },
  {
    "id": "218",
    "name": "167 St",
    "borough": "Bx",
    "lat": 40.833771,
    "lng": -73.91844,
    "routes": [
      "B",
      "D"
    ]
  },
  {
    "id": "604",
    "name": "161 St-Yankee Stadium",
    "borough": "Bx",
    "lat": 40.827905,
    "lng": -73.925651,
    "routes": [
      "4",
      "B",
      "D"
    ]
  },
  {
    "id": "220",
    "name": "155 St",
    "borough": "M",
    "lat": 40.830135,
    "lng": -73.938209,
    "routes": [
      "B",
      "D"
    ]
  },
  {
    "id": "221",
    "name": "21 St-Queensbridge",
    "borough": "Q",
    "lat": 40.754203,
    "lng": -73.942836,
    "routes": [
      "M"
    ]
  },
  {
    "id": "222",
    "name": "Roosevelt Island",
    "borough": "M",
    "lat": 40.759145,
    "lng": -73.95326,
    "routes": [
      "M"
    ]
  },
  {
    "id": "223",
    "name": "Lexington Av/63 St",
    "borough": "M",
    "lat": 40.764629,
    "lng": -73.966113,
    "routes": [
      "M",
      "Q"
    ]
  },
  {
    "id": "224",
    "name": "57 St",
    "borough": "M",
    "lat": 40.763972,
    "lng": -73.97745,
    "routes": [
      "M"
    ]
  },
  {
    "id": "225",
    "name": "47-50 Sts-Rockefeller Ctr",
    "borough": "M",
    "lat": 40.758663,
    "lng": -73.981329,
    "routes": [
      "B",
      "D",
      "F",
      "M"
    ]
  },
  {
    "id": "609",
    "name": "42 St-Bryant Pk",
    "borough": "M",
    "lat": 40.754222,
    "lng": -73.984569,
    "routes": [
      "7",
      "B",
      "D",
      "F",
      "M"
    ]
  },
  {
    "id": "228",
    "name": "23 St",
    "borough": "M",
    "lat": 40.742878,
    "lng": -73.992821,
    "routes": [
      "F",
      "M"
    ]
  },
  {
    "id": "619",
    "name": "Broadway-Lafayette St",
    "borough": "M",
    "lat": 40.725297,
    "lng": -73.996204,
    "routes": [
      "6",
      "B",
      "D",
      "F",
      "M"
    ]
  },
  {
    "id": "231",
    "name": "Grand St",
    "borough": "M",
    "lat": 40.718267,
    "lng": -73.993753,
    "routes": [
      "B",
      "D"
    ]
  },
  {
    "id": "232",
    "name": "2 Av",
    "borough": "M",
    "lat": 40.723402,
    "lng": -73.989938,
    "routes": [
      "F"
    ]
  },
  {
    "id": "234",
    "name": "East Broadway",
    "borough": "M",
    "lat": 40.713715,
    "lng": -73.990173,
    "routes": [
      "F"
    ]
  },
  {
    "id": "235",
    "name": "York St",
    "borough": "Bk",
    "lat": 40.701397,
    "lng": -73.986751,
    "routes": [
      "F"
    ]
  },
  {
    "id": "236",
    "name": "Bergen St",
    "borough": "Bk",
    "lat": 40.686145,
    "lng": -73.990862,
    "routes": [
      "F",
      "G"
    ]
  },
  {
    "id": "237",
    "name": "Carroll St",
    "borough": "Bk",
    "lat": 40.680303,
    "lng": -73.995048,
    "routes": [
      "F",
      "G"
    ]
  },
  {
    "id": "238",
    "name": "Smith-9 Sts",
    "borough": "Bk",
    "lat": 40.67358,
    "lng": -73.995959,
    "routes": [
      "F",
      "G"
    ]
  },
  {
    "id": "240",
    "name": "7 Av",
    "borough": "Bk",
    "lat": 40.666271,
    "lng": -73.980305,
    "routes": [
      "F",
      "G"
    ]
  },
  {
    "id": "241",
    "name": "15 St-Prospect Park",
    "borough": "Bk",
    "lat": 40.660365,
    "lng": -73.979493,
    "routes": [
      "F",
      "G"
    ]
  },
  {
    "id": "242",
    "name": "Fort Hamilton Pkwy",
    "borough": "Bk",
    "lat": 40.650782,
    "lng": -73.975776,
    "routes": [
      "F",
      "G"
    ]
  },
  {
    "id": "243",
    "name": "Church Av",
    "borough": "Bk",
    "lat": 40.644041,
    "lng": -73.979678,
    "routes": [
      "F",
      "G"
    ]
  },
  {
    "id": "244",
    "name": "Ditmas Av",
    "borough": "Bk",
    "lat": 40.636119,
    "lng": -73.978172,
    "routes": [
      "F"
    ]
  },
  {
    "id": "245",
    "name": "18 Av",
    "borough": "Bk",
    "lat": 40.629755,
    "lng": -73.976971,
    "routes": [
      "F"
    ]
  },
  {
    "id": "246",
    "name": "Avenue I",
    "borough": "Bk",
    "lat": 40.625322,
    "lng": -73.976127,
    "routes": [
      "F"
    ]
  },
  {
    "id": "247",
    "name": "Bay Pkwy",
    "borough": "Bk",
    "lat": 40.620769,
    "lng": -73.975264,
    "routes": [
      "F"
    ]
  },
  {
    "id": "248",
    "name": "Avenue N",
    "borough": "Bk",
    "lat": 40.61514,
    "lng": -73.974197,
    "routes": [
      "F"
    ]
  },
  {
    "id": "249",
    "name": "Avenue P",
    "borough": "Bk",
    "lat": 40.608944,
    "lng": -73.973022,
    "routes": [
      "F"
    ]
  },
  {
    "id": "250",
    "name": "Kings Hwy",
    "borough": "Bk",
    "lat": 40.603217,
    "lng": -73.972361,
    "routes": [
      "F"
    ]
  },
  {
    "id": "251",
    "name": "Avenue U",
    "borough": "Bk",
    "lat": 40.596063,
    "lng": -73.973357,
    "routes": [
      "F"
    ]
  },
  {
    "id": "252",
    "name": "Avenue X",
    "borough": "Bk",
    "lat": 40.58962,
    "lng": -73.97425,
    "routes": [
      "F"
    ]
  },
  {
    "id": "253",
    "name": "Neptune Av",
    "borough": "Bk",
    "lat": 40.581011,
    "lng": -73.974574,
    "routes": [
      "F"
    ]
  },
  {
    "id": "254",
    "name": "Jamaica-179 St",
    "borough": "Q",
    "lat": 40.712646,
    "lng": -73.783817,
    "routes": [
      "F"
    ]
  },
  {
    "id": "255",
    "name": "169 St",
    "borough": "Q",
    "lat": 40.71047,
    "lng": -73.793604,
    "routes": [
      "F"
    ]
  },
  {
    "id": "256",
    "name": "Parsons Blvd",
    "borough": "Q",
    "lat": 40.707564,
    "lng": -73.803326,
    "routes": [
      "F"
    ]
  },
  {
    "id": "257",
    "name": "Sutphin Blvd",
    "borough": "Q",
    "lat": 40.70546,
    "lng": -73.810708,
    "routes": [
      "F"
    ]
  },
  {
    "id": "258",
    "name": "Briarwood",
    "borough": "Q",
    "lat": 40.709179,
    "lng": -73.820574,
    "routes": [
      "E",
      "F"
    ]
  },
  {
    "id": "259",
    "name": "Kew Gardens-Union Tpke",
    "borough": "Q",
    "lat": 40.714441,
    "lng": -73.831008,
    "routes": [
      "E",
      "F"
    ]
  },
  {
    "id": "260",
    "name": "75 Av",
    "borough": "Q",
    "lat": 40.718331,
    "lng": -73.837324,
    "routes": [
      "E",
      "F"
    ]
  },
  {
    "id": "261",
    "name": "Forest Hills-71 Av",
    "borough": "Q",
    "lat": 40.721691,
    "lng": -73.844521,
    "routes": [
      "E",
      "F",
      "M",
      "R"
    ]
  },
  {
    "id": "262",
    "name": "67 Av",
    "borough": "Q",
    "lat": 40.726523,
    "lng": -73.852719,
    "routes": [
      "M",
      "R"
    ]
  },
  {
    "id": "263",
    "name": "63 Dr-Rego Park",
    "borough": "Q",
    "lat": 40.729846,
    "lng": -73.861604,
    "routes": [
      "M",
      "R"
    ]
  },
  {
    "id": "264",
    "name": "Woodhaven Blvd",
    "borough": "Q",
    "lat": 40.733106,
    "lng": -73.869229,
    "routes": [
      "M",
      "R"
    ]
  },
  {
    "id": "265",
    "name": "Grand Av-Newtown",
    "borough": "Q",
    "lat": 40.737015,
    "lng": -73.877223,
    "routes": [
      "M",
      "R"
    ]
  },
  {
    "id": "266",
    "name": "Elmhurst Av",
    "borough": "Q",
    "lat": 40.742454,
    "lng": -73.882017,
    "routes": [
      "M",
      "R"
    ]
  },
  {
    "id": "616",
    "name": "Jackson Hts-Roosevelt Av",
    "borough": "Q",
    "lat": 40.746644,
    "lng": -73.891338,
    "routes": [
      "7",
      "E",
      "F",
      "M",
      "R"
    ]
  },
  {
    "id": "268",
    "name": "65 St",
    "borough": "Q",
    "lat": 40.749669,
    "lng": -73.898453,
    "routes": [
      "M",
      "R"
    ]
  },
  {
    "id": "269",
    "name": "Northern Blvd",
    "borough": "Q",
    "lat": 40.752885,
    "lng": -73.906006,
    "routes": [
      "M",
      "R"
    ]
  },
  {
    "id": "270",
    "name": "46 St",
    "borough": "Q",
    "lat": 40.756312,
    "lng": -73.913333,
    "routes": [
      "M",
      "R"
    ]
  },
  {
    "id": "271",
    "name": "Steinway St",
    "borough": "Q",
    "lat": 40.756879,
    "lng": -73.92074,
    "routes": [
      "M",
      "R"
    ]
  },
  {
    "id": "272",
    "name": "36 St",
    "borough": "Q",
    "lat": 40.752039,
    "lng": -73.928781,
    "routes": [
      "M",
      "R"
    ]
  },
  {
    "id": "273",
    "name": "Queens Plaza",
    "borough": "Q",
    "lat": 40.748973,
    "lng": -73.937243,
    "routes": [
      "E",
      "F",
      "R"
    ]
  },
  {
    "id": "606",
    "name": "Court Sq-23 St",
    "borough": "Q",
    "lat": 40.747846,
    "lng": -73.946,
    "routes": [
      "7",
      "E",
      "F",
      "G"
    ]
  },
  {
    "id": "612",
    "name": "Lexington Av/53 St",
    "borough": "M",
    "lat": 40.757552,
    "lng": -73.969055,
    "routes": [
      "6",
      "E",
      "F"
    ]
  },
  {
    "id": "276",
    "name": "5 Av/53 St",
    "borough": "M",
    "lat": 40.760167,
    "lng": -73.975224,
    "routes": [
      "E",
      "F"
    ]
  },
  {
    "id": "277",
    "name": "7 Av",
    "borough": "M",
    "lat": 40.762862,
    "lng": -73.981637,
    "routes": [
      "B",
      "D",
      "E"
    ]
  },
  {
    "id": "278",
    "name": "Jamaica Center-Parsons/Archer",
    "borough": "Q",
    "lat": 40.702147,
    "lng": -73.801109,
    "routes": [
      "E",
      "J",
      "Z"
    ]
  },
  {
    "id": "279",
    "name": "Sutphin Blvd-Archer Av-JFK Airport",
    "borough": "Q",
    "lat": 40.700486,
    "lng": -73.807969,
    "routes": [
      "E",
      "J",
      "Z"
    ]
  },
  {
    "id": "280",
    "name": "Jamaica-Van Wyck",
    "borough": "Q",
    "lat": 40.702566,
    "lng": -73.816859,
    "routes": [
      "E"
    ]
  },
  {
    "id": "282",
    "name": "21 St",
    "borough": "Q",
    "lat": 40.744065,
    "lng": -73.949724,
    "routes": [
      "G"
    ]
  },
  {
    "id": "283",
    "name": "Greenpoint Av",
    "borough": "Bk",
    "lat": 40.731352,
    "lng": -73.954449,
    "routes": [
      "G"
    ]
  },
  {
    "id": "284",
    "name": "Nassau Av",
    "borough": "Bk",
    "lat": 40.724635,
    "lng": -73.951277,
    "routes": [
      "G"
    ]
  },
  {
    "id": "286",
    "name": "Broadway",
    "borough": "Bk",
    "lat": 40.706092,
    "lng": -73.950308,
    "routes": [
      "G"
    ]
  },
  {
    "id": "287",
    "name": "Flushing Av",
    "borough": "Bk",
    "lat": 40.700377,
    "lng": -73.950234,
    "routes": [
      "G"
    ]
  },
  {
    "id": "288",
    "name": "Myrtle-Willoughby Avs",
    "borough": "Bk",
    "lat": 40.694568,
    "lng": -73.949046,
    "routes": [
      "G"
    ]
  },
  {
    "id": "289",
    "name": "Bedford-Nostrand Avs",
    "borough": "Bk",
    "lat": 40.689627,
    "lng": -73.953522,
    "routes": [
      "G"
    ]
  },
  {
    "id": "290",
    "name": "Classon Av",
    "borough": "Bk",
    "lat": 40.688873,
    "lng": -73.96007,
    "routes": [
      "G"
    ]
  },
  {
    "id": "291",
    "name": "Clinton-Washington Avs",
    "borough": "Bk",
    "lat": 40.688089,
    "lng": -73.966839,
    "routes": [
      "G"
    ]
  },
  {
    "id": "292",
    "name": "Fulton St",
    "borough": "Bk",
    "lat": 40.687119,
    "lng": -73.975375,
    "routes": [
      "G"
    ]
  },
  {
    "id": "293",
    "name": "Van Cortlandt Park-242 St",
    "borough": "Bx",
    "lat": 40.889248,
    "lng": -73.898583,
    "routes": [
      "1"
    ]
  },
  {
    "id": "294",
    "name": "238 St",
    "borough": "Bx",
    "lat": 40.884667,
    "lng": -73.90087,
    "routes": [
      "1"
    ]
  },
  {
    "id": "295",
    "name": "231 St",
    "borough": "Bx",
    "lat": 40.878856,
    "lng": -73.904834,
    "routes": [
      "1"
    ]
  },
  {
    "id": "296",
    "name": "Marble Hill-225 St",
    "borough": "M",
    "lat": 40.874561,
    "lng": -73.909831,
    "routes": [
      "1"
    ]
  },
  {
    "id": "297",
    "name": "215 St",
    "borough": "M",
    "lat": 40.869444,
    "lng": -73.915279,
    "routes": [
      "1"
    ]
  },
  {
    "id": "298",
    "name": "207 St",
    "borough": "M",
    "lat": 40.864621,
    "lng": -73.918822,
    "routes": [
      "1"
    ]
  },
  {
    "id": "299",
    "name": "Dyckman St",
    "borough": "M",
    "lat": 40.860531,
    "lng": -73.925536,
    "routes": [
      "1"
    ]
  },
  {
    "id": "300",
    "name": "191 St",
    "borough": "M",
    "lat": 40.855225,
    "lng": -73.929412,
    "routes": [
      "1"
    ]
  },
  {
    "id": "301",
    "name": "181 St",
    "borough": "M",
    "lat": 40.849505,
    "lng": -73.933596,
    "routes": [
      "1"
    ]
  },
  {
    "id": "303",
    "name": "157 St",
    "borough": "M",
    "lat": 40.834041,
    "lng": -73.94489,
    "routes": [
      "1"
    ]
  },
  {
    "id": "304",
    "name": "145 St",
    "borough": "M",
    "lat": 40.826551,
    "lng": -73.95036,
    "routes": [
      "1"
    ]
  },
  {
    "id": "305",
    "name": "137 St-City College",
    "borough": "M",
    "lat": 40.822008,
    "lng": -73.953676,
    "routes": [
      "1"
    ]
  },
  {
    "id": "306",
    "name": "125 St",
    "borough": "M",
    "lat": 40.815581,
    "lng": -73.958372,
    "routes": [
      "1"
    ]
  },
  {
    "id": "307",
    "name": "116 St-Columbia University",
    "borough": "M",
    "lat": 40.807722,
    "lng": -73.96411,
    "routes": [
      "1"
    ]
  },
  {
    "id": "308",
    "name": "Cathedral Pkwy (110 St)",
    "borough": "M",
    "lat": 40.803967,
    "lng": -73.966847,
    "routes": [
      "1"
    ]
  },
  {
    "id": "309",
    "name": "103 St",
    "borough": "M",
    "lat": 40.799446,
    "lng": -73.968379,
    "routes": [
      "1"
    ]
  },
  {
    "id": "310",
    "name": "96 St",
    "borough": "M",
    "lat": 40.793919,
    "lng": -73.972323,
    "routes": [
      "1",
      "2",
      "3"
    ]
  },
  {
    "id": "311",
    "name": "86 St",
    "borough": "M",
    "lat": 40.788644,
    "lng": -73.976218,
    "routes": [
      "1"
    ]
  },
  {
    "id": "312",
    "name": "79 St",
    "borough": "M",
    "lat": 40.783934,
    "lng": -73.979917,
    "routes": [
      "1"
    ]
  },
  {
    "id": "313",
    "name": "72 St",
    "borough": "M",
    "lat": 40.778453,
    "lng": -73.98197,
    "routes": [
      "1",
      "2",
      "3"
    ]
  },
  {
    "id": "314",
    "name": "66 St-Lincoln Center",
    "borough": "M",
    "lat": 40.77344,
    "lng": -73.982209,
    "routes": [
      "1"
    ]
  },
  {
    "id": "316",
    "name": "50 St",
    "borough": "M",
    "lat": 40.761728,
    "lng": -73.983849,
    "routes": [
      "1"
    ]
  },
  {
    "id": "318",
    "name": "34 St-Penn Station",
    "borough": "M",
    "lat": 40.750373,
    "lng": -73.991057,
    "routes": [
      "1",
      "2",
      "3"
    ]
  },
  {
    "id": "319",
    "name": "28 St",
    "borough": "M",
    "lat": 40.747215,
    "lng": -73.993365,
    "routes": [
      "1"
    ]
  },
  {
    "id": "320",
    "name": "23 St",
    "borough": "M",
    "lat": 40.744081,
    "lng": -73.995657,
    "routes": [
      "1"
    ]
  },
  {
    "id": "321",
    "name": "18 St",
    "borough": "M",
    "lat": 40.74104,
    "lng": -73.997871,
    "routes": [
      "1"
    ]
  },
  {
    "id": "323",
    "name": "Christopher St-Stonewall",
    "borough": "M",
    "lat": 40.733422,
    "lng": -74.002906,
    "routes": [
      "1"
    ]
  },
  {
    "id": "324",
    "name": "Houston St",
    "borough": "M",
    "lat": 40.728251,
    "lng": -74.005367,
    "routes": [
      "1"
    ]
  },
  {
    "id": "325",
    "name": "Canal St",
    "borough": "M",
    "lat": 40.722854,
    "lng": -74.006277,
    "routes": [
      "1"
    ]
  },
  {
    "id": "326",
    "name": "Franklin St",
    "borough": "M",
    "lat": 40.719318,
    "lng": -74.006886,
    "routes": [
      "1"
    ]
  },
  {
    "id": "327",
    "name": "Chambers St",
    "borough": "M",
    "lat": 40.715478,
    "lng": -74.009266,
    "routes": [
      "1",
      "2",
      "3"
    ]
  },
  {
    "id": "328",
    "name": "WTC Cortlandt",
    "borough": "M",
    "lat": 40.711835,
    "lng": -74.012188,
    "routes": [
      "1"
    ]
  },
  {
    "id": "329",
    "name": "Rector St",
    "borough": "M",
    "lat": 40.707513,
    "lng": -74.013783,
    "routes": [
      "1"
    ]
  },
  {
    "id": "333",
    "name": "Wall St",
    "borough": "M",
    "lat": 40.706821,
    "lng": -74.0091,
    "routes": [
      "2",
      "3"
    ]
  },
  {
    "id": "334",
    "name": "Clark St",
    "borough": "Bk",
    "lat": 40.697466,
    "lng": -73.993086,
    "routes": [
      "2",
      "3"
    ]
  },
  {
    "id": "336",
    "name": "Hoyt St",
    "borough": "Bk",
    "lat": 40.690545,
    "lng": -73.985065,
    "routes": [
      "2",
      "3"
    ]
  },
  {
    "id": "337",
    "name": "Nevins St",
    "borough": "Bk",
    "lat": 40.688246,
    "lng": -73.980492,
    "routes": [
      "2",
      "3",
      "4",
      "5"
    ]
  },
  {
    "id": "339",
    "name": "Bergen St",
    "borough": "Bk",
    "lat": 40.680829,
    "lng": -73.975098,
    "routes": [
      "2",
      "3"
    ]
  },
  {
    "id": "340",
    "name": "Grand Army Plaza",
    "borough": "Bk",
    "lat": 40.675235,
    "lng": -73.971046,
    "routes": [
      "2",
      "3"
    ]
  },
  {
    "id": "341",
    "name": "Eastern Pkwy-Brooklyn Museum",
    "borough": "Bk",
    "lat": 40.671987,
    "lng": -73.964375,
    "routes": [
      "2",
      "3"
    ]
  },
  {
    "id": "343",
    "name": "Nostrand Av",
    "borough": "Bk",
    "lat": 40.669847,
    "lng": -73.950466,
    "routes": [
      "3"
    ]
  },
  {
    "id": "344",
    "name": "Kingston Av",
    "borough": "Bk",
    "lat": 40.669399,
    "lng": -73.942161,
    "routes": [
      "3"
    ]
  },
  {
    "id": "345",
    "name": "Crown Hts-Utica Av",
    "borough": "Bk",
    "lat": 40.668897,
    "lng": -73.932942,
    "routes": [
      "3",
      "4"
    ]
  },
  {
    "id": "346",
    "name": "Sutter Av-Rutland Rd",
    "borough": "Bk",
    "lat": 40.664717,
    "lng": -73.92261,
    "routes": [
      "3"
    ]
  },
  {
    "id": "347",
    "name": "Saratoga Av",
    "borough": "Bk",
    "lat": 40.661453,
    "lng": -73.916327,
    "routes": [
      "3"
    ]
  },
  {
    "id": "348",
    "name": "Rockaway Av",
    "borough": "Bk",
    "lat": 40.662549,
    "lng": -73.908946,
    "routes": [
      "3"
    ]
  },
  {
    "id": "349",
    "name": "Junius St",
    "borough": "Bk",
    "lat": 40.663515,
    "lng": -73.902447,
    "routes": [
      "3"
    ]
  },
  {
    "id": "350",
    "name": "Pennsylvania Av",
    "borough": "Bk",
    "lat": 40.664635,
    "lng": -73.894895,
    "routes": [
      "3"
    ]
  },
  {
    "id": "351",
    "name": "Van Siclen Av",
    "borough": "Bk",
    "lat": 40.665449,
    "lng": -73.889395,
    "routes": [
      "3"
    ]
  },
  {
    "id": "352",
    "name": "New Lots Av",
    "borough": "Bk",
    "lat": 40.666235,
    "lng": -73.884079,
    "routes": [
      "3"
    ]
  },
  {
    "id": "353",
    "name": "President St-Medgar Evers College",
    "borough": "Bk",
    "lat": 40.667883,
    "lng": -73.950683,
    "routes": [
      "2",
      "5"
    ]
  },
  {
    "id": "354",
    "name": "Sterling St",
    "borough": "Bk",
    "lat": 40.662742,
    "lng": -73.95085,
    "routes": [
      "2",
      "5"
    ]
  },
  {
    "id": "355",
    "name": "Winthrop St",
    "borough": "Bk",
    "lat": 40.656652,
    "lng": -73.9502,
    "routes": [
      "2",
      "5"
    ]
  },
  {
    "id": "356",
    "name": "Church Av",
    "borough": "Bk",
    "lat": 40.650843,
    "lng": -73.949575,
    "routes": [
      "2",
      "5"
    ]
  },
  {
    "id": "357",
    "name": "Beverly Rd",
    "borough": "Bk",
    "lat": 40.645098,
    "lng": -73.948959,
    "routes": [
      "2",
      "5"
    ]
  },
  {
    "id": "358",
    "name": "Newkirk Av-Little Haiti",
    "borough": "Bk",
    "lat": 40.639967,
    "lng": -73.948411,
    "routes": [
      "2",
      "5"
    ]
  },
  {
    "id": "359",
    "name": "Flatbush Av-Brooklyn College",
    "borough": "Bk",
    "lat": 40.632836,
    "lng": -73.947642,
    "routes": [
      "2",
      "5"
    ]
  },
  {
    "id": "360",
    "name": "Pelham Bay Park",
    "borough": "Bx",
    "lat": 40.852462,
    "lng": -73.828121,
    "routes": [
      "6"
    ]
  },
  {
    "id": "361",
    "name": "Buhre Av",
    "borough": "Bx",
    "lat": 40.84681,
    "lng": -73.832569,
    "routes": [
      "6"
    ]
  },
  {
    "id": "362",
    "name": "Middletown Rd",
    "borough": "Bx",
    "lat": 40.843863,
    "lng": -73.836322,
    "routes": [
      "6"
    ]
  },
  {
    "id": "363",
    "name": "Westchester Sq-E Tremont Av",
    "borough": "Bx",
    "lat": 40.839892,
    "lng": -73.842952,
    "routes": [
      "6"
    ]
  },
  {
    "id": "364",
    "name": "Zerega Av",
    "borough": "Bx",
    "lat": 40.836488,
    "lng": -73.847036,
    "routes": [
      "6"
    ]
  },
  {
    "id": "365",
    "name": "Castle Hill Av",
    "borough": "Bx",
    "lat": 40.834255,
    "lng": -73.851222,
    "routes": [
      "6"
    ]
  },
  {
    "id": "366",
    "name": "Parkchester",
    "borough": "Bx",
    "lat": 40.833226,
    "lng": -73.860816,
    "routes": [
      "6"
    ]
  },
  {
    "id": "367",
    "name": "St Lawrence Av",
    "borough": "Bx",
    "lat": 40.831509,
    "lng": -73.867618,
    "routes": [
      "6"
    ]
  },
  {
    "id": "368",
    "name": "Morrison Av-Soundview",
    "borough": "Bx",
    "lat": 40.829521,
    "lng": -73.874516,
    "routes": [
      "6"
    ]
  },
  {
    "id": "369",
    "name": "Elder Av",
    "borough": "Bx",
    "lat": 40.828584,
    "lng": -73.879159,
    "routes": [
      "6"
    ]
  },
  {
    "id": "370",
    "name": "Whitlock Av",
    "borough": "Bx",
    "lat": 40.826525,
    "lng": -73.886283,
    "routes": [
      "6"
    ]
  },
  {
    "id": "371",
    "name": "Hunts Point Av",
    "borough": "Bx",
    "lat": 40.820948,
    "lng": -73.890549,
    "routes": [
      "6"
    ]
  },
  {
    "id": "372",
    "name": "Longwood Av",
    "borough": "Bx",
    "lat": 40.816104,
    "lng": -73.896435,
    "routes": [
      "6"
    ]
  },
  {
    "id": "373",
    "name": "E 149 St",
    "borough": "Bx",
    "lat": 40.812118,
    "lng": -73.904098,
    "routes": [
      "6"
    ]
  },
  {
    "id": "374",
    "name": "E 143 St-St Mary's St",
    "borough": "Bx",
    "lat": 40.808719,
    "lng": -73.907657,
    "routes": [
      "6"
    ]
  },
  {
    "id": "375",
    "name": "Cypress Av",
    "borough": "Bx",
    "lat": 40.805368,
    "lng": -73.914042,
    "routes": [
      "6"
    ]
  },
  {
    "id": "376",
    "name": "Brook Av",
    "borough": "Bx",
    "lat": 40.807566,
    "lng": -73.91924,
    "routes": [
      "6"
    ]
  },
  {
    "id": "377",
    "name": "3 Av-138 St",
    "borough": "Bx",
    "lat": 40.810476,
    "lng": -73.926138,
    "routes": [
      "6"
    ]
  },
  {
    "id": "378",
    "name": "Woodlawn",
    "borough": "Bx",
    "lat": 40.886037,
    "lng": -73.878751,
    "routes": [
      "4"
    ]
  },
  {
    "id": "379",
    "name": "Mosholu Pkwy",
    "borough": "Bx",
    "lat": 40.87975,
    "lng": -73.884655,
    "routes": [
      "4"
    ]
  },
  {
    "id": "380",
    "name": "Bedford Park Blvd-Lehman College",
    "borough": "Bx",
    "lat": 40.873412,
    "lng": -73.890064,
    "routes": [
      "4"
    ]
  },
  {
    "id": "381",
    "name": "Kingsbridge Rd",
    "borough": "Bx",
    "lat": 40.86776,
    "lng": -73.897174,
    "routes": [
      "4"
    ]
  },
  {
    "id": "382",
    "name": "Fordham Rd",
    "borough": "Bx",
    "lat": 40.862803,
    "lng": -73.901034,
    "routes": [
      "4"
    ]
  },
  {
    "id": "383",
    "name": "183 St",
    "borough": "Bx",
    "lat": 40.858407,
    "lng": -73.903879,
    "routes": [
      "4"
    ]
  },
  {
    "id": "384",
    "name": "Burnside Av",
    "borough": "Bx",
    "lat": 40.853453,
    "lng": -73.907684,
    "routes": [
      "4"
    ]
  },
  {
    "id": "385",
    "name": "176 St",
    "borough": "Bx",
    "lat": 40.84848,
    "lng": -73.911794,
    "routes": [
      "4"
    ]
  },
  {
    "id": "386",
    "name": "Mt Eden Av",
    "borough": "Bx",
    "lat": 40.844434,
    "lng": -73.914685,
    "routes": [
      "4"
    ]
  },
  {
    "id": "387",
    "name": "170 St",
    "borough": "Bx",
    "lat": 40.840075,
    "lng": -73.917791,
    "routes": [
      "4"
    ]
  },
  {
    "id": "388",
    "name": "167 St",
    "borough": "Bx",
    "lat": 40.835537,
    "lng": -73.9214,
    "routes": [
      "4"
    ]
  },
  {
    "id": "603",
    "name": "149 St-Grand Concourse",
    "borough": "Bx",
    "lat": 40.818375,
    "lng": -73.927351,
    "routes": [
      "2",
      "4",
      "5"
    ]
  },
  {
    "id": "391",
    "name": "138 St-Grand Concourse",
    "borough": "Bx",
    "lat": 40.813224,
    "lng": -73.929849,
    "routes": [
      "4",
      "5"
    ]
  },
  {
    "id": "392",
    "name": "125 St",
    "borough": "M",
    "lat": 40.804138,
    "lng": -73.937594,
    "routes": [
      "4",
      "5",
      "6"
    ]
  },
  {
    "id": "393",
    "name": "116 St",
    "borough": "M",
    "lat": 40.798629,
    "lng": -73.941617,
    "routes": [
      "6"
    ]
  },
  {
    "id": "394",
    "name": "110 St",
    "borough": "M",
    "lat": 40.79502,
    "lng": -73.94425,
    "routes": [
      "6"
    ]
  },
  {
    "id": "395",
    "name": "103 St",
    "borough": "M",
    "lat": 40.7906,
    "lng": -73.947478,
    "routes": [
      "6"
    ]
  },
  {
    "id": "396",
    "name": "96 St",
    "borough": "M",
    "lat": 40.785672,
    "lng": -73.95107,
    "routes": [
      "6"
    ]
  },
  {
    "id": "397",
    "name": "86 St",
    "borough": "M",
    "lat": 40.779492,
    "lng": -73.955589,
    "routes": [
      "4",
      "5",
      "6"
    ]
  },
  {
    "id": "398",
    "name": "77 St",
    "borough": "M",
    "lat": 40.77362,
    "lng": -73.959874,
    "routes": [
      "6"
    ]
  },
  {
    "id": "399",
    "name": "68 St-Hunter College",
    "borough": "M",
    "lat": 40.768141,
    "lng": -73.96387,
    "routes": [
      "6"
    ]
  },
  {
    "id": "610",
    "name": "Grand Central-42 St",
    "borough": "M",
    "lat": 40.751776,
    "lng": -73.976848,
    "routes": [
      "4",
      "5",
      "6",
      "7",
      "S"
    ]
  },
  {
    "id": "403",
    "name": "33 St",
    "borough": "M",
    "lat": 40.746081,
    "lng": -73.982076,
    "routes": [
      "6"
    ]
  },
  {
    "id": "404",
    "name": "28 St",
    "borough": "M",
    "lat": 40.74307,
    "lng": -73.984264,
    "routes": [
      "6"
    ]
  },
  {
    "id": "405",
    "name": "23 St-Baruch College",
    "borough": "M",
    "lat": 40.739864,
    "lng": -73.986599,
    "routes": [
      "6"
    ]
  },
  {
    "id": "407",
    "name": "Astor Pl",
    "borough": "M",
    "lat": 40.730054,
    "lng": -73.99107,
    "routes": [
      "6"
    ]
  },
  {
    "id": "409",
    "name": "Spring St",
    "borough": "M",
    "lat": 40.722301,
    "lng": -73.997141,
    "routes": [
      "6"
    ]
  },
  {
    "id": "413",
    "name": "Wall St",
    "borough": "M",
    "lat": 40.707557,
    "lng": -74.011862,
    "routes": [
      "4",
      "5"
    ]
  },
  {
    "id": "414",
    "name": "Bowling Green",
    "borough": "M",
    "lat": 40.704817,
    "lng": -74.014065,
    "routes": [
      "4",
      "5"
    ]
  },
  {
    "id": "416",
    "name": "Wakefield-241 St",
    "borough": "Bx",
    "lat": 40.903125,
    "lng": -73.85062,
    "routes": [
      "2"
    ]
  },
  {
    "id": "417",
    "name": "Nereid Av",
    "borough": "Bx",
    "lat": 40.898379,
    "lng": -73.854376,
    "routes": [
      "2",
      "5"
    ]
  },
  {
    "id": "418",
    "name": "233 St",
    "borough": "Bx",
    "lat": 40.893193,
    "lng": -73.857473,
    "routes": [
      "2",
      "5"
    ]
  },
  {
    "id": "419",
    "name": "225 St",
    "borough": "Bx",
    "lat": 40.888022,
    "lng": -73.860341,
    "routes": [
      "2",
      "5"
    ]
  },
  {
    "id": "420",
    "name": "219 St",
    "borough": "Bx",
    "lat": 40.883895,
    "lng": -73.862633,
    "routes": [
      "2",
      "5"
    ]
  },
  {
    "id": "421",
    "name": "Gun Hill Rd",
    "borough": "Bx",
    "lat": 40.87785,
    "lng": -73.866256,
    "routes": [
      "2",
      "5"
    ]
  },
  {
    "id": "422",
    "name": "Burke Av",
    "borough": "Bx",
    "lat": 40.871356,
    "lng": -73.867164,
    "routes": [
      "2",
      "5"
    ]
  },
  {
    "id": "423",
    "name": "Allerton Av",
    "borough": "Bx",
    "lat": 40.865462,
    "lng": -73.867352,
    "routes": [
      "2",
      "5"
    ]
  },
  {
    "id": "424",
    "name": "Pelham Pkwy",
    "borough": "Bx",
    "lat": 40.857192,
    "lng": -73.867615,
    "routes": [
      "2",
      "5"
    ]
  },
  {
    "id": "425",
    "name": "Bronx Park East",
    "borough": "Bx",
    "lat": 40.848828,
    "lng": -73.868457,
    "routes": [
      "2",
      "5"
    ]
  },
  {
    "id": "426",
    "name": "E 180 St",
    "borough": "Bx",
    "lat": 40.841894,
    "lng": -73.873488,
    "routes": [
      "2",
      "5"
    ]
  },
  {
    "id": "427",
    "name": "West Farms Sq-E Tremont Av",
    "borough": "Bx",
    "lat": 40.840295,
    "lng": -73.880049,
    "routes": [
      "2",
      "5"
    ]
  },
  {
    "id": "428",
    "name": "174 St",
    "borough": "Bx",
    "lat": 40.837288,
    "lng": -73.887734,
    "routes": [
      "2",
      "5"
    ]
  },
  {
    "id": "429",
    "name": "Freeman St",
    "borough": "Bx",
    "lat": 40.829993,
    "lng": -73.891865,
    "routes": [
      "2",
      "5"
    ]
  },
  {
    "id": "430",
    "name": "Simpson St",
    "borough": "Bx",
    "lat": 40.824073,
    "lng": -73.893064,
    "routes": [
      "2",
      "5"
    ]
  },
  {
    "id": "431",
    "name": "Intervale Av",
    "borough": "Bx",
    "lat": 40.822181,
    "lng": -73.896736,
    "routes": [
      "2",
      "5"
    ]
  },
  {
    "id": "432",
    "name": "Prospect Av",
    "borough": "Bx",
    "lat": 40.819585,
    "lng": -73.90177,
    "routes": [
      "2",
      "5"
    ]
  },
  {
    "id": "433",
    "name": "Jackson Av",
    "borough": "Bx",
    "lat": 40.81649,
    "lng": -73.907807,
    "routes": [
      "2",
      "5"
    ]
  },
  {
    "id": "434",
    "name": "3 Av-149 St",
    "borough": "Bx",
    "lat": 40.816109,
    "lng": -73.917757,
    "routes": [
      "2",
      "5"
    ]
  },
  {
    "id": "436",
    "name": "Harlem-148 St",
    "borough": "M",
    "lat": 40.82388,
    "lng": -73.93647,
    "routes": [
      "3"
    ]
  },
  {
    "id": "437",
    "name": "145 St",
    "borough": "M",
    "lat": 40.820421,
    "lng": -73.936245,
    "routes": [
      "3"
    ]
  },
  {
    "id": "438",
    "name": "135 St",
    "borough": "M",
    "lat": 40.814229,
    "lng": -73.94077,
    "routes": [
      "2",
      "3"
    ]
  },
  {
    "id": "439",
    "name": "125 St",
    "borough": "M",
    "lat": 40.807754,
    "lng": -73.945495,
    "routes": [
      "2",
      "3"
    ]
  },
  {
    "id": "440",
    "name": "116 St",
    "borough": "M",
    "lat": 40.802098,
    "lng": -73.949625,
    "routes": [
      "2",
      "3"
    ]
  },
  {
    "id": "441",
    "name": "110 St-Malcolm X Plaza",
    "borough": "M",
    "lat": 40.799075,
    "lng": -73.951822,
    "routes": [
      "2",
      "3"
    ]
  },
  {
    "id": "442",
    "name": "Eastchester-Dyre Av",
    "borough": "Bx",
    "lat": 40.8883,
    "lng": -73.830834,
    "routes": [
      "5"
    ]
  },
  {
    "id": "443",
    "name": "Baychester Av",
    "borough": "Bx",
    "lat": 40.878663,
    "lng": -73.838591,
    "routes": [
      "5"
    ]
  },
  {
    "id": "444",
    "name": "Gun Hill Rd",
    "borough": "Bx",
    "lat": 40.869526,
    "lng": -73.846384,
    "routes": [
      "5"
    ]
  },
  {
    "id": "445",
    "name": "Pelham Pkwy",
    "borough": "Bx",
    "lat": 40.858985,
    "lng": -73.855359,
    "routes": [
      "5"
    ]
  },
  {
    "id": "446",
    "name": "Morris Park",
    "borough": "Bx",
    "lat": 40.854364,
    "lng": -73.860495,
    "routes": [
      "5"
    ]
  },
  {
    "id": "447",
    "name": "Flushing-Main St",
    "borough": "Q",
    "lat": 40.7596,
    "lng": -73.83003,
    "routes": [
      "7"
    ]
  },
  {
    "id": "448",
    "name": "Mets-Willets Point",
    "borough": "Q",
    "lat": 40.754622,
    "lng": -73.845625,
    "routes": [
      "7"
    ]
  },
  {
    "id": "449",
    "name": "111 St",
    "borough": "Q",
    "lat": 40.75173,
    "lng": -73.855334,
    "routes": [
      "7"
    ]
  },
  {
    "id": "450",
    "name": "103 St-Corona Plaza",
    "borough": "Q",
    "lat": 40.749865,
    "lng": -73.8627,
    "routes": [
      "7"
    ]
  },
  {
    "id": "451",
    "name": "Junction Blvd",
    "borough": "Q",
    "lat": 40.749145,
    "lng": -73.869527,
    "routes": [
      "7"
    ]
  },
  {
    "id": "452",
    "name": "90 St-Elmhurst Av",
    "borough": "Q",
    "lat": 40.748408,
    "lng": -73.876613,
    "routes": [
      "7"
    ]
  },
  {
    "id": "453",
    "name": "82 St-Jackson Hts",
    "borough": "Q",
    "lat": 40.747659,
    "lng": -73.883697,
    "routes": [
      "7"
    ]
  },
  {
    "id": "455",
    "name": "69 St",
    "borough": "Q",
    "lat": 40.746325,
    "lng": -73.896403,
    "routes": [
      "7"
    ]
  },
  {
    "id": "456",
    "name": "61 St-Woodside",
    "borough": "Q",
    "lat": 40.74563,
    "lng": -73.902984,
    "routes": [
      "7"
    ]
  },
  {
    "id": "457",
    "name": "52 St",
    "borough": "Q",
    "lat": 40.744149,
    "lng": -73.912549,
    "routes": [
      "7"
    ]
  },
  {
    "id": "458",
    "name": "46 St-Bliss St",
    "borough": "Q",
    "lat": 40.743132,
    "lng": -73.918435,
    "routes": [
      "7"
    ]
  },
  {
    "id": "459",
    "name": "40 St-Lowery St",
    "borough": "Q",
    "lat": 40.743781,
    "lng": -73.924016,
    "routes": [
      "7"
    ]
  },
  {
    "id": "460",
    "name": "33 St-Rawson St",
    "borough": "Q",
    "lat": 40.744587,
    "lng": -73.930997,
    "routes": [
      "7"
    ]
  },
  {
    "id": "461",
    "name": "Queensboro Plaza",
    "borough": "Q",
    "lat": 40.750582,
    "lng": -73.940202,
    "routes": [
      "7",
      "N",
      "W"
    ]
  },
  {
    "id": "463",
    "name": "Hunters Point Av",
    "borough": "Q",
    "lat": 40.742216,
    "lng": -73.948916,
    "routes": [
      "7"
    ]
  },
  {
    "id": "464",
    "name": "Vernon Blvd-Jackson Av",
    "borough": "Q",
    "lat": 40.742626,
    "lng": -73.953581,
    "routes": [
      "7"
    ]
  },
  {
    "id": "471",
    "name": "34 St-Hudson Yards",
    "borough": "M",
    "lat": 40.755882,
    "lng": -74.00191,
    "routes": [
      "7"
    ]
  },
  {
    "id": "475",
    "name": "96 St",
    "borough": "M",
    "lat": 40.784318,
    "lng": -73.947152,
    "routes": [
      "Q"
    ]
  },
  {
    "id": "476",
    "name": "86 St",
    "borough": "M",
    "lat": 40.777891,
    "lng": -73.951787,
    "routes": [
      "Q"
    ]
  },
  {
    "id": "477",
    "name": "72 St",
    "borough": "M",
    "lat": 40.768799,
    "lng": -73.958424,
    "routes": [
      "Q"
    ]
  },
  {
    "id": "501",
    "name": "St George",
    "borough": "SI",
    "lat": 40.643748,
    "lng": -74.073643,
    "routes": [
      "SIR"
    ]
  },
  {
    "id": "502",
    "name": "Tompkinsville",
    "borough": "SI",
    "lat": 40.636949,
    "lng": -74.074835,
    "routes": [
      "SIR"
    ]
  },
  {
    "id": "503",
    "name": "Stapleton",
    "borough": "SI",
    "lat": 40.627915,
    "lng": -74.075162,
    "routes": [
      "SIR"
    ]
  },
  {
    "id": "504",
    "name": "Clifton",
    "borough": "SI",
    "lat": 40.621319,
    "lng": -74.071402,
    "routes": [
      "SIR"
    ]
  },
  {
    "id": "505",
    "name": "Grasmere",
    "borough": "SI",
    "lat": 40.603117,
    "lng": -74.084087,
    "routes": [
      "SIR"
    ]
  },
  {
    "id": "506",
    "name": "Old Town",
    "borough": "SI",
    "lat": 40.596612,
    "lng": -74.087368,
    "routes": [
      "SIR"
    ]
  },
  {
    "id": "507",
    "name": "Dongan Hills",
    "borough": "SI",
    "lat": 40.588849,
    "lng": -74.09609,
    "routes": [
      "SIR"
    ]
  },
  {
    "id": "508",
    "name": "Jefferson Av",
    "borough": "SI",
    "lat": 40.583591,
    "lng": -74.103338,
    "routes": [
      "SIR"
    ]
  },
  {
    "id": "509",
    "name": "Grant City",
    "borough": "SI",
    "lat": 40.578965,
    "lng": -74.109704,
    "routes": [
      "SIR"
    ]
  },
  {
    "id": "510",
    "name": "New Dorp",
    "borough": "SI",
    "lat": 40.57348,
    "lng": -74.11721,
    "routes": [
      "SIR"
    ]
  },
  {
    "id": "511",
    "name": "Oakwood Heights",
    "borough": "SI",
    "lat": 40.56511,
    "lng": -74.12632,
    "routes": [
      "SIR"
    ]
  },
  {
    "id": "512",
    "name": "Bay Terrace",
    "borough": "SI",
    "lat": 40.5564,
    "lng": -74.136907,
    "routes": [
      "SIR"
    ]
  },
  {
    "id": "513",
    "name": "Great Kills",
    "borough": "SI",
    "lat": 40.551231,
    "lng": -74.151399,
    "routes": [
      "SIR"
    ]
  },
  {
    "id": "514",
    "name": "Eltingville",
    "borough": "SI",
    "lat": 40.544601,
    "lng": -74.16457,
    "routes": [
      "SIR"
    ]
  },
  {
    "id": "515",
    "name": "Annadale",
    "borough": "SI",
    "lat": 40.54046,
    "lng": -74.178217,
    "routes": [
      "SIR"
    ]
  },
  {
    "id": "516",
    "name": "Huguenot",
    "borough": "SI",
    "lat": 40.533674,
    "lng": -74.191794,
    "routes": [
      "SIR"
    ]
  },
  {
    "id": "517",
    "name": "Prince's Bay",
    "borough": "SI",
    "lat": 40.525507,
    "lng": -74.200064,
    "routes": [
      "SIR"
    ]
  },
  {
    "id": "518",
    "name": "Pleasant Plains",
    "borough": "SI",
    "lat": 40.52241,
    "lng": -74.217847,
    "routes": [
      "SIR"
    ]
  },
  {
    "id": "519",
    "name": "Richmond Valley",
    "borough": "SI",
    "lat": 40.519631,
    "lng": -74.229141,
    "routes": [
      "SIR"
    ]
  },
  {
    "id": "522",
    "name": "Tottenville",
    "borough": "SI",
    "lat": 40.512764,
    "lng": -74.251961,
    "routes": [
      "SIR"
    ]
  },
  {
    "id": "523",
    "name": "Arthur Kill",
    "borough": "SI",
    "lat": 40.516578,
    "lng": -74.242096,
    "routes": [
      "SIR"
    ]
  }
]
